[
  {
    "id": 1,
    "name": "Dr. Prince Pal",
    "specialty": "Cardiologist",
    "clinic": "District Hospital Bhimtal",
    "phone": "+91 98765 12345",
    "rating": 4.8,
    "experience": "15 years",
    "lat": 29.357,
    "lng": 79.526,
    "address": "Block Road, Bhimtal, Uttarakhand"
  },
  {
    "id": 2,
    "name": "Dr. Rajesh Kumar",
    "specialty": "Dermatologist",
    "clinic": "Skin Health Clinic",
    "phone": "+91 98765 23456",
    "rating": 4.9,
    "experience": "12 years",
    "lat": 29.36,
    "lng": 79.53,
    "address": "Bohrakoon, Bhimtal, Uttarakhand"
  },
  {
    "id": 3,
    "name": "Dr. Priya Singh",
    "specialty": "Pediatrician",
    "clinic": "Children's Wellness Center",
    "phone": "+91 98765 34567",
    "rating": 4.7,
    "experience": "10 years",
    "lat": 29.355,
    "lng": 79.525,
    "address": "Mallital, Bhimtal, Uttarakhand"
  },
  {
    "id": 4,
    "name": "Dr. Anil Sharma",
    "specialty": "General Physician",
    "clinic": "Family Health Clinic",
    "phone": "+91 98765 45678",
    "rating": 4.6,
    "experience": "20 years",
    "lat": 29.358,
    "lng": 79.528,
    "address": "Near Gorakhpur, Bhimtal, Uttarakhand"
  },
  {
    "id": 5,
    "name": "Dr. Meera Joshi",
    "specialty": "Orthopedic",
    "clinic": "Bone & Joint Hospital",
    "phone": "+91 98765 56789",
    "rating": 4.9,
    "experience": "18 years",
    "lat": 29.354,
    "lng": 79.524,
    "address": "Near IDBI Bank, Bhimtal, Uttarakhand"
  },
  {
    "id": 6,
    "name": "Dr. Vivek Kapoor",
    "specialty": "Neurologist",
    "clinic": "Brain Health Institute",
    "phone": "+91 98765 67890",
    "rating": 4.8,
    "experience": "16 years",
    "lat": 29.359,
    "lng": 79.529,
    "address": "Mallital, Bhimtal, Uttarakhand"
  }
]
